"Longitude","Latitude","year","Tested","Site.Name","Country","Present"
8.767,3.73203,2001,102,"","Equatorial Guinea",0
-14.2167,13.3167,2002,50,"Basse","Gambia",0
11.5167,3.86667,2003,200,"Yaoundé","Cameroon",0
13.2344,-8.83833,2003,50,"","Angola",0
38.0813,-7.98074,2003,36,"Rufiji","Tanzania",0
-0.62284,5.33871,2004,32,"Winneba","Ghana",0
4.56122,7.76581,2004,71,"Osogbo","Nigeria",0
8.767,3.73203,2004,262,"","Equatorial Guinea",0
32.5833,-25.9667,2004,50,"Maputo","Mozambique",0
-6.91667,10.7833,2005,36,"Bougoula-Hameau","Mali",0
9.78368,2.04405,2005,29,"Ngonamanga","Equatorial Guinea",0
10.1739,1.74579,2005,29,"Miyobo","Equatorial Guinea",0
11.5167,3.86667,2005,111,"Yaoundé","Cameroon",0
32.5957,0.337748,2005,51,"Kampala","Uganda",0
-4.00826,5.35995,2006,31,"Abidjan","Côte d'Ivoire",0
8.767,3.73203,2006,158,"","Equatorial Guinea",0
11.5167,3.86667,2006,51,"Yaoundé","Cameroon",0
11.8664,-4.76916,2006,30,"Pointe-Noire","Congo",0
15.3139,-4.33167,2006,35,"Kinshasa","Democratic Republic of the Congo",0
38.6667,-6.4,2006,50,"Fukayosi","Tanzania",0
43.2473,-11.7172,2006,45,"Moroni","Comoros",0
43.2799,-11.812,2006,31,"Mitsoudje","Comoros",0
43.2934,-11.3888,2006,19,"Mitsamiouli","Comoros",0
-8.3365,13.1372,2007,30,"Faladie","Mali",0
-8.31791,12.1977,2007,47,"Kolle","Mali",0
13.4833,-5.81667,2007,50,"Bas-Congo","Democratic Republic of the Congo",0
15.3139,-4.33167,2007,50,"Kinshasa","Democratic Republic of the Congo",0
17.379,-3.31681,2007,50,"Bandundu","Democratic Republic of the Congo",0
38.617,7.0822,2007,71,"Wondogenet","Ethiopia",0
37.4336,5.8924,2008,77,"Shele","Ethiopia",0
-9.4895,13.0341,2009,117,"Kita","Mali",0
-4.9,13.3,2009,130,"San","Mali",0
34.206,-0.436792,2009,32,"Mbita","Kenya",0
34.2422,-0.0617328,2009,53,"Siaya district","Kenya",0
-8.31791,12.1977,2010,29,"Kolle","Mali",0
-7.91435,12.6632,2010,24,"Sotuba","Mali",0
-1.3,12.5833,2010,273,"Ziniare","Burkina Faso",0
-1.09028,10.8847,2010,30,"Navrongo Wa Yendi","Ghana",0
-1.09028,10.8847,2010,76,"Navrongo","Ghana",0
-0.2,5.55,2010,1,"Accra","Ghana",0
-0.2,5.55,2010,26,"Accra Cape Coast","Ghana",0
0.0955,10.5168,2010,70,"Bunkpurugu","Ghana",0
0.3795,6.3916,2010,40,"Begoro Bekwai Hohoe Sunyani Tarkwa","Ghana",0
3.26737,6.46149,2010,1,"Amuwo Odofin","Nigeria",0
3.3634,6.447,2010,1,"Apapa","Nigeria",0
3.38436,6.57676,2010,3,"Kosofe","Nigeria",0
3.50493,6.6307,2010,127,"Ikorodu","Nigeria",0
7.25427,9.05465,2010,1,"Abuja","Nigeria",0
13.2344,-8.83833,2010,50,"","Angola",0
15.2833,-4.26667,2010,41,"Brazzaville","Congo",0
29.7181,-2.56041,2010,75,"Huye District","Rwanda",0
32.5814,0.321956,2010,1,"Kampala","Uganda",0
34.1811,0.692778,2010,100,"Tororo","Uganda",0
34.7626,-16.0311,2010,69,"Chikwawa","Malawi",0
38.476,14.1179,2010,33,"Selekleka","Ethiopia",0
-16.9256,14.7896,2011,26,"Thiès","Senegal",0
-16.5893,13.4525,2011,1,"Banjul","Gambia",0
-6.91667,10.7833,2011,87,"Bougoula-Hameau","Mali",0
-1.52086,6.74704,2011,69,"Ashanti","Ghana",0
-0.2,5.55,2011,3,"Accra","Ghana",0
0.0955,10.5168,2011,65,"Bunkpurugu","Ghana",0
4.5442,8.5358,2011,6,"Ilorin","Nigeria",0
7.25427,9.05465,2011,5,"Abuja","Nigeria",0
8.767,3.73203,2011,163,"","Equatorial Guinea",0
13.2344,-8.83833,2011,5,"Luanda","Angola",0
13.4585,-14.9105,2011,2,"Lubango","Angola",0
13.5833,-1.63333,2011,29,"Franceville","Gabon",0
28.2037,-15.4165,2011,1,"Lusaka","Zambia",0
32.5606,15.5283,2011,3,"Khartoum","Sudan",0
32.5833,-25.9667,2011,50,"Maputo","Mozambique",0
35.2631,9.0243,2011,49,"Serbo","Ethiopia",0
36.8525,-1.24794,2011,2,"Nairobi","Kenya",0
37.4336,5.8924,2011,85,"Shele","Ethiopia",0
38.617,7.0822,2011,98,"Wondogenet","Ethiopia",0
39.7735,-3.7754,2011,59,"Pingilikani","Kenya",0
-17.366,14.7645,2012,138,"Dakar","Senegal",0
-17.366,14.7645,2012,207,"","Senegal",0
-16.9256,14.7896,2012,120,"Thiès","Senegal",0
-16.6409,13.2748,2012,78,"Brikama","Gambia",0
-14.4722,13.8642,2012,102,"Tambacound","Senegal",0
-13.5784,9.64119,2012,9,"","Guinea",0
-13.2344,8.48444,2012,7,"","Sierra Leone",0
-10.8014,6.31333,2012,5,"","Liberia",0
-8.1356,12.6129,2012,162,"Bamako","Mali",0
-4.29177,11.1781,2012,221,"Bobo-Dioulasso","Burkina Faso",0
-4.03333,5.31667,2012,1,"","Côte d'Ivoire",0
-1.62197,6.68712,2012,84,"Kumasi","Ghana",0
-0.2,5.55,2012,3,"","Ghana",0
-0.2,5.55,2012,3,"Accra","Ghana",0
-0.2,5.55,2012,26,"Accra Cape Coast","Ghana",0
0.0955,10.5168,2012,56,"Bunkpurugu","Ghana",0
4.5442,8.5358,2012,34,"Ilorin","Nigeria",0
7.25427,9.05465,2012,8,"Abuja","Nigeria",0
7.48333,9.06667,2012,20,"","Nigeria",0
8.767,3.73203,2012,14,"","Equatorial Guinea",0
9.4544,0.3901,2012,2,"","Gabon",0
10.2404,-0.701546,2012,114,"Lambaréné","Gabon",0
13.2344,-8.83833,2012,7,"Luanda","Angola",0
13.2344,-8.83833,2012,12,"","Angola",0
13.2344,-8.83833,2012,29,"Luanda","Angola",0
13.5833,-1.63333,2012,30,"Franceville","Gabon",0
15.2833,-4.26667,2012,3,"","Congo",0
15.3139,-4.33167,2012,3,"","Democratic Republic of the Congo",0
18.5833,4.36667,2012,3,"","Central African Republic",0
26.7976,-16.3888,2012,26,"MM Hospital","Zambia",0
27.0018,-16.3811,2012,36,"Mangunza","Zambia",0
27.0443,-16.4361,2012,12,"Nalube","Zambia",0
27.1763,-16.3403,2012,60,"Chilalantambo","Zambia",0
28.2037,-15.4165,2012,1,"Lusaka","Zambia",0
28.2833,-15.4167,2012,1,"","Zambia",0
29.7,-0.75,2012,20,"Kihihi","Uganda",0
31.5071,4.86086,2012,1,"Juba","South Sudan",0
32,1,2012,5,"","Uganda",0
32.4325,15.5018,2012,3,"","Sudan",0
32.5606,15.5283,2012,1,"Khartoum","Sudan",0
32.5833,-25.9667,2012,6,"","Mozambique",0
33.2315,0.442926,2012,20,"Walukuba","Uganda",0
33.7,-13.95,2012,14,"","Malawi",0
34.0147,0.77578,2012,20,"Nagongera","Uganda",0
34.0169,-0.4829,2012,283,"Mfangano","Kenya",0
34.09,-0.5283,2012,31,"Kibuogi","Kenya",0
34.0903,-0.479,2012,28,"Takawiri","Kenya",0
34.1906,-0.3582,2012,23,"Ngodhe","Kenya",0
34.2422,-0.0617328,2012,147,"Siaya district","Kenya",0
34.3833,-0.183333,2012,208,"Asembo","Kenya",0
34.768,-0.091702,2012,84,"Kisumu","Kenya",0
38.6381,8.96349,2012,126,"Addis Ababa","Ethiopia",0
39.85,-3.63333,2012,117,"Kilifi","Kenya",0
43.25,-11.72,2012,67,"Grande Comore","Comoros",0
-17.366,14.7645,2013,6,"Dakar","Senegal",0
-17.366,14.7645,2013,63,"","Senegal",0
-16.9256,14.7896,2013,50,"Thiès","Senegal",0
-16.6409,13.2748,2013,125,"Brikama","Gambia",0
-16.1996,18.1481,2013,1,"Nouakchott","Mauritania",0
-15.6178,11.8817,2013,3,"Bissau","Guinea-Bissau",0
-13.5784,9.64119,2013,7,"","Guinea",0
-13.2937,8.45456,2013,1,"Freetown","Sierra Leone",0
-13.2937,8.45456,2013,5,"Freetown","Sierra Leone",0
-13.2344,8.48444,2013,6,"","Sierra Leone",0
-10.8014,6.31333,2013,9,"","Liberia",0
-8.3365,13.1372,2013,125,"Faladie","Mali",0
-8,12.65,2013,1,"","Mali",0
-5.35118,6.81623,2013,2,"Yamoussoukro","Côte d'Ivoire",0
-4.00826,5.35995,2013,16,"Abidjan","Côte d'Ivoire",0
-1.09028,10.8847,2013,42,"Navrongo Wa Yendi","Ghana",0
-0.2,5.55,2013,2,"Accra","Ghana",0
-0.2,5.55,2013,7,"","Ghana",0
-0.2,5.55,2013,7,"Accra","Ghana",0
0.0955,10.5168,2013,68,"Bunkpurugu","Ghana",0
0.3795,6.3916,2013,86,"Begoro Bekwai Hohoe Sunyani Tarkwa","Ghana",0
1.11612,9.74375,2013,162,"Niamtougou","Togo",0
1.1449,8.97798,2013,169,"Sokode","Togo",0
1.23136,6.1725,2013,169,"Lome","Togo",0
2.10528,13.5214,2013,521,"Niamey","Niger",0
2.62885,6.49686,2013,1,"","Benin",0
6.73334,0.330192,2013,60,"Sao Tomé","Sao Tome and Principe",0
6.73486,0.336358,2013,60,"Água Grande","Sao Tome and Principe",0
7.25427,9.05465,2013,4,"Abuja","Nigeria",0
7.48333,9.06667,2013,12,"","Nigeria",0
8.70697,3.75353,2013,6,"Malabo","Equatorial Guinea",0
8.767,3.73203,2013,170,"","Equatorial Guinea",0
9.4544,0.3901,2013,2,"","Gabon",0
9.78368,2.04405,2013,27,"Ngonamanga","Equatorial Guinea",0
10.1739,1.74579,2013,59,"Miyobo","Equatorial Guinea",0
11.5167,3.86667,2013,5,"","Cameroon",0
12.4647,-1.14383,2013,29,"Koula-Moutou","Gabon",0
12.7391,-0.815042,2013,30,"Lastourville","Gabon",0
13.1913,32.8872,2013,2,"","Libya",0
13.2344,-8.83833,2013,9,"Luanda","Angola",0
13.2344,-8.83833,2013,37,"","Angola",0
13.2344,-8.83833,2013,38,"","Angola",0
13.5833,-1.63333,2013,27,"Franceville","Gabon",0
15.0557,12.1348,2013,1,"","Chad",0
15.2833,-4.26667,2013,2,"","Congo",0
15.2833,-4.26667,2013,38,"Brazzaville","Congo",0
15.3139,-4.33167,2013,2,"","Democratic Republic of the Congo",0
15.3139,-4.33167,2013,120,"Kinshasa","Democratic Republic of the Congo",0
28.2833,-15.4167,2013,7,"","Zambia",0
29.2853,-3.37513,2013,1,"Bujumbura","Burundi",0
29.7,-0.75,2013,20,"Kihihi","Uganda",0
30.2121,-1.99169,2013,32,"Masaka Ruhuha","Rwanda",0
31.5071,4.86086,2013,2,"Juba","South Sudan",0
32,1,2013,1,"","Uganda",0
32.2941,2.77378,2013,60,"Lira Gulu","Uganda",0
32.4325,15.5018,2013,2,"Khartoum","Sudan",0
32.4325,15.5018,2013,5,"","Sudan",0
32.5833,-25.9667,2013,1,"","Mozambique",0
33.2042,0.424444,2013,78,"Jinja","Uganda",0
33.2042,0.424444,2013,91,"Jinja","Uganda",0
33.2315,0.442926,2013,20,"Walukuba","Uganda",0
34.0147,0.77578,2013,20,"Nagongera","Uganda",0
34.55,-0.0428065,2013,47,"Kombewa","Kenya",0
34.772,-0.678306,2013,47,"Kisii","Kenya",0
35.2877,-0.367868,2013,43,"Kericho","Kenya",0
35.7517,-6.16219,2013,1,"Dodoma","Tanzania",0
35.98,0.47,2013,34,"Marigat","Kenya",0
36.8219,-1.29207,2013,1,"","Kenya",0
36.8525,-1.24794,2013,5,"Nairobi","Kenya",0
37.5907,15.1075,2013,25,"Barentu","Eritrea",0
37.8778,15.5407,2013,8,"Agordat","Eritrea",0
40.1229,-3.22174,2013,39,"Malindi","Kenya",0
44.6874,1.80663,2013,94,"Janale","Somalia",0
45.4905,2.77703,2013,92,"Jowhar","Somalia",0
47.3724,-18.8873,2013,256,"Antananarivo","Madagascar",0
-17.366,14.7645,2014,4,"Dakar","Senegal",0
-17.366,14.7645,2014,50,"Dakar","Senegal",0
-17.366,14.7645,2014,92,"Dakar","Senegal",0
-16.6409,13.2748,2014,67,"Brikama","Gambia",0
-16.5893,13.4525,2014,12,"Banjul","Gambia",0
-16.5753,13.4544,2014,77,"Banjul","Gambia",0
-16.0759,14.1652,2014,24,"Kaolack district","Senegal",0
-15.9288,13.9187,2014,24,"Ndoffane","Senegal",0
-15.6934,16.4587,2014,5,"Richard Toll","Senegal",0
-14.4764,16.2224,2014,6,"Podor district","Senegal",0
-13.7916,9.60222,2014,10,"Conakry","Guinea",0
-13.7916,9.60222,2014,86,"Conakry","Guinea",0
-13.5784,9.64119,2014,1,"","Guinea",0
-13.5784,9.64119,2014,3,"","Guinea",0
-13.5784,9.64119,2014,8,"","Guinea",0
-13.5784,9.64119,2014,55,"","Guinea",0
-13.2937,8.45456,2014,3,"Freetown","Sierra Leone",0
-13.2937,8.45456,2014,32,"Freetown","Sierra Leone",0
-13.2344,8.48444,2014,2,"","Sierra Leone",0
-13.2344,8.48444,2014,4,"","Sierra Leone",0
-13.2344,8.48444,2014,5,"","Sierra Leone",0
-13.2344,8.48444,2014,29,"","Sierra Leone",0
-10.8046,6.29582,2014,1,"Monrovia","Liberia",0
-10.8014,6.31333,2014,1,"","Liberia",0
-10.8014,6.31333,2014,4,"","Liberia",0
-10.8014,6.31333,2014,15,"","Liberia",0
-10.8014,6.31333,2014,25,"","Liberia",0
-8.3449,13.1334,2014,91,"Faladje","Mali",0
-8.3365,13.1372,2014,3,"Faladie","Mali",0
-8.1356,12.6129,2014,465,"Bamako","Mali",0
-8,12.65,2014,1,"","Mali",0
-8,12.65,2014,3,"","Mali",0
-8,12.65,2014,5,"","Mali",0
-5.35118,6.81623,2014,8,"Yamoussoukro","Côte d'Ivoire",0
-5.35118,6.81623,2014,1083,"Yamoussoukro","Côte d'Ivoire",0
-5.2744,6.8163,2014,98,"","Côte d'Ivoire",0
-4.03333,5.31667,2014,2,"","Côte d'Ivoire",0
-4.03333,5.31667,2014,17,"","Côte d'Ivoire",0
-4.03333,5.31667,2014,664,"","Côte d'Ivoire",0
-1.52086,6.74704,2014,234,"Ashanti","Ghana",0
-1.51966,12.3714,2014,1,"","Burkina Faso",0
-1.51966,12.3714,2014,2,"","Burkina Faso",0
-1.51966,12.3714,2014,114,"","Burkina Faso",0
-1.51966,12.3714,2014,589,"Ouagadougou","Burkina Faso",0
-1.24723,5.10506,2014,82,"Cape Coast","Ghana",0
-1.24723,5.10506,2014,92,"Cape Coast","Ghana",0
-1.1,10.9,2014,99,"Navrongo","Ghana",0
-0.375209,6.38591,2014,72,"Begoro","Ghana",0
-0.2,5.55,2014,2,"Accra","Ghana",0
-0.2,5.55,2014,4,"","Ghana",0
-0.2,5.55,2014,6,"","Ghana",0
-0.2,5.55,2014,10,"","Ghana",0
-0.2,5.55,2014,22,"Accra","Ghana",0
-0.2,5.55,2014,30,"Accra","Ghana",0
-0.2,5.55,2014,65,"","Ghana",0
0.0955,10.5168,2014,73,"Bunkpurugu","Ghana",0
1.17665,6.18249,2014,2,"Lome","Togo",0
1.17665,6.18249,2014,508,"Lome","Togo",0
1.2125,6.13778,2014,5,"","Togo",0
1.2125,6.13778,2014,7,"","Togo",0
2.10528,13.5214,2014,2,"Niamey","Niger",0
2.10528,13.5214,2014,3,"","Niger",0
2.10528,13.5214,2014,4,"","Niger",0
2.62885,6.49686,2014,1,"","Benin",0
2.62885,6.49686,2014,3,"","Benin",0
2.62885,6.49686,2014,4,"","Benin",0
2.62885,6.49686,2014,4,"Porto-Novo","Benin",0
2.62885,6.49686,2014,9,"","Benin",0
2.62885,6.49686,2014,78,"","Benin",0
2.62885,6.49686,2014,234,"Porto-Novo","Benin",0
3.0506,36.7631,2014,1,"","Algeria",0
3.05876,36.7538,2014,1,"Algiers","Algeria",0
3.336,6.4556,2014,38,"Ajeromi Ifelodun","Nigeria",0
3.33845,6.54083,2014,15,"Shomolu","Nigeria",0
3.38457,6.51941,2014,46,"Lagos","Nigeria",0
3.38457,6.51941,2014,89,"Lagos","Nigeria",0
3.84625,6.47382,2014,7,"Ibeju Lekki","Nigeria",0
3.97062,6.58631,2014,3,"Epe","Nigeria",0
7.25427,9.05465,2014,4,"Abuja","Nigeria",0
7.48333,9.06667,2014,3,"","Nigeria",0
7.48333,9.06667,2014,25,"","Nigeria",0
7.48333,9.06667,2014,27,"","Nigeria",0
7.48333,9.06667,2014,152,"","Nigeria",0
8.70697,3.75353,2014,1,"Malabo","Equatorial Guinea",0
8.74812,3.61983,2014,98,"Bioko Island","Equatorial Guinea",0
8.767,3.73203,2014,11,"","Equatorial Guinea",0
8.767,3.73203,2014,14,"","Equatorial Guinea",0
9.2534,4.1535,2014,11,"Buea","Cameroon",0
9.29454,0.411743,2014,7,"Libreville","Gabon",0
9.29454,0.411743,2014,93,"Libreville","Gabon",0
9.29454,0.411743,2014,407,"Libreville","Gabon",0
9.4544,0.3901,2014,2,"","Gabon",0
9.4544,0.3901,2014,3,"","Gabon",0
9.4544,0.3901,2014,14,"","Gabon",0
9.4544,0.3901,2014,83,"","Gabon",0
11.5167,3.86667,2014,1,"Yaoundé","Cameroon",0
11.5167,3.86667,2014,7,"","Cameroon",0
11.5167,3.86667,2014,9,"","Cameroon",0
11.5167,3.86667,2014,13,"","Cameroon",0
11.5167,3.86667,2014,26,"Yaoundé","Cameroon",0
11.5167,3.86667,2014,54,"","Cameroon",0
11.5167,3.86667,2014,901,"Yaoundé","Cameroon",0
12.4647,-1.14383,2014,30,"Koula-Moutou","Gabon",0
12.7391,-0.815042,2014,30,"Lastourville","Gabon",0
13.1913,32.8872,2014,1,"","Libya",0
13.1913,32.8872,2014,3,"","Libya",0
13.2344,-8.83833,2014,3,"Luanda","Angola",0
13.2344,-8.83833,2014,7,"","Angola",0
13.2344,-8.83833,2014,24,"","Angola",0
13.2344,-8.83833,2014,139,"Luanda","Angola",0
13.4,9.3,2014,49,"Garoua","Cameroon",0
13.5833,-1.63333,2014,28,"Franceville","Gabon",0
15.0282,12.1292,2014,2,"D'Djamena","Chad",0
15.0282,12.1292,2014,33,"D'Djamena","Chad",0
15.0557,12.1348,2014,4,"","Chad",0
15.0557,12.1348,2014,11,"","Chad",0
15.2385,-4.34714,2014,55,"Luzizila","Democratic Republic of the Congo",0
15.28,-4.27,2014,18,"Brazzaville","Democratic Republic of the Congo",0
15.2833,-4.26667,2014,4,"","Congo",0
15.2833,-4.26667,2014,18,"Brazzaville","Congo",0
15.2833,-4.26667,2014,34,"Brazzaville","Congo",0
15.3139,-4.33167,2014,1,"","Democratic Republic of the Congo",0
15.3139,-4.33167,2014,3,"","Democratic Republic of the Congo",0
15.3139,-4.33167,2014,4,"","Democratic Republic of the Congo",0
15.3139,-4.33167,2014,16,"Kinshasa","Democratic Republic of the Congo",0
15.3139,-4.33167,2014,22,"","Democratic Republic of the Congo",0
15.3139,-4.33167,2014,32,"","Democratic Republic of the Congo",0
15.3139,-4.33167,2014,82,"Kinshasa","Democratic Republic of the Congo",0
17.44416,-10.970819,2014,4,"Kimbango Angola","Angola",0
18.2229,0.002214,2014,48,"Bolenge","Democratic Republic of the Congo",0
18.4172,-33.92,2014,1,"Cape Town","South Africa",0
18.4172,-33.92,2014,2,"Cape Town","South Africa",0
18.4241,-33.9249,2014,1,"","South Africa",0
18.5833,4.36667,2014,1,"","Central African Republic",0
18.5833,4.36667,2014,3,"","Central African Republic",0
21.5588,-4.85312,2014,30,"Mweka","Democratic Republic of the Congo",0
21.6482,-21.6961,2014,4,"Ghanzi","Botswana",0
21.8569,-24.755,2014,3,"Kgalagadi","Botswana",0
23.0012,-19.9071,2014,94,"Ngamiland","Botswana",0
25.7812,-24.963,2014,12,"South-East Botswana","Botswana",0
26.0414,-21.5832,2014,70,"Central Botswana","Botswana",0
26.2305,-24.197,2014,1,"Kgatleng","Botswana",0
26.4518,-1.46372,2014,49,"Punia","Democratic Republic of the Congo",0
26.7976,-16.3888,2014,26,"MM Hospital","Zambia",0
26.9522,-10.9424,2014,59,"Kapolowe","Democratic Republic of the Congo",0
27.0018,-16.3811,2014,134,"Mangunza","Zambia",0
27.0579,-16.3074,2014,55,"Simaubi","Zambia",0
27.1763,-16.3403,2014,105,"Chilalantambo","Zambia",0
27.4556,-20.9031,2014,1,"North East Botswana","Botswana",0
28.2037,-15.4165,2014,6,"Lusaka","Zambia",0
28.2037,-15.4165,2014,16,"Lusaka","Zambia",0
28.2833,-15.4167,2014,1,"","Zambia",0
28.2833,-15.4167,2014,7,"","Zambia",0
28.2833,-15.4167,2014,10,"","Zambia",0
28.2833,-15.4167,2014,38,"","Zambia",0
29.0111,-2.69748,2014,112,"Bugarama","Rwanda",0
29.3018,0.114047,2014,21,"Butembo","Democratic Republic of the Congo",0
29.4667,-2.4,2014,20,"Nyamagabe District","Rwanda",0
29.7181,-2.56041,2014,33,"Huye District","Rwanda",0
29.7181,-2.56041,2014,81,"Huye District","Rwanda",0
29.7333,-2.35,2014,45,"Nyanza District","Rwanda",0
29.8948,-2.3856,2014,101,"Kibirizi","Rwanda",0
30.0345,-1.95463,2014,292,"Kigali","Rwanda",0
30.145,-2.205,2014,48,"Bugesera District","Rwanda",0
30.6193,-0.611435,2014,283,"Mbarara","Uganda",0
30.91679955,-17.81629944,2014,7,"Harare","Zimbabwe",0
30.9168,-17.8163,2014,7,"Harare","Zimbabwe",0
31.0297,-17.8639,2014,1,"","Zimbabwe",0
31.25,30.05,2014,1,"","Egypt",0
31.5071,4.86086,2014,1,"Juba","South Sudan",0
32,1,2014,1,"","Uganda",0
32,1,2014,5,"","Uganda",0
32,1,2014,8,"","Uganda",0
32,1,2014,116,"","Uganda",0
32.2881,2.7724,2014,143,"Gulu","Uganda",0
32.4325,15.5018,2014,1,"","Sudan",0
32.4325,15.5018,2014,3,"","Sudan",0
32.4325,15.5018,2014,3,"Khartoum","Sudan",0
32.4325,15.5018,2014,21,"","Sudan",0
32.5606,15.5283,2014,5,"Khartoum","Sudan",0
32.5814,0.321956,2014,1,"Kampala","Uganda",0
32.5814,0.321956,2014,4,"Kampala","Uganda",0
32.5814,0.321956,2014,53,"Kampala","Uganda",0
32.5833,-25.9667,2014,2,"","Mozambique",0
32.5833,-25.9667,2014,5,"Maputo","Mozambique",0
32.5833,-25.9667,2014,9,"","Mozambique",0
32.5833,-25.9667,2014,14,"","Mozambique",0
32.5833,-25.9667,2014,28,"","Mozambique",0
33.7,-13.95,2014,7,"","Malawi",0
33.7,-13.95,2014,8,"","Malawi",0
33.712,-13.9632,2014,13,"Lilongwe","Malawi",0
34.55,-0.0428065,2014,63,"Kombewa","Kenya",0
34.768,-0.091702,2014,108,"Kisumu","Kenya",0
34.9154,-0.175084,2014,284,"Ahero","Kenya",0
35.0058,-15.7861,2014,7,"Blantyre","Malawi",0
35.7239,-6.16849,2014,3,"Dodoma","Tanzania",0
35.7517,-6.16219,2014,1,"Dodoma","Tanzania",0
36.7073,-1.30446,2014,2,"Nairobi","Kenya",0
36.75,13.3333,2014,21,"Sanja","Ethiopia",0
36.8219,-1.29207,2014,2,"","Kenya",0
36.8219,-1.29207,2014,6,"","Kenya",0
36.8525,-1.24794,2014,6,"Nairobi","Kenya",0
37.549,12.383,2014,43,"Maksegnet","Ethiopia",0
37.5907,15.1075,2014,3,"Barentu","Eritrea",0
37.5907,15.1075,2014,138,"Barentu","Eritrea",0
37.7796,12.1236,2014,28,"Addis Zemen","Ethiopia",0
38,8,2014,82,"null","Ethiopia",0
38.4404,-5.16156,2014,48,"Korogwe","Tanzania",0
38.4531,15.7807,2014,1,"Keren","Eritrea",0
38.6381,8.96349,2014,4,"Addis Ababa","Ethiopia",0
38.75,9.01667,2014,1,"","Ethiopia",0
38.75,9.01667,2014,2,"","Ethiopia",0
38.75,9.01667,2014,8,"","Ethiopia",0
38.8101,14.8726,2014,9,"Medefera","Eritrea",0
38.84,14.6372,2014,2,"Adi Quala","Eritrea",0
39.1023,-5.0889,2014,92,"Tanga","Tanzania",0
39.1142,-6.76936,2014,232,"Dar es Salaam","Tanzania",0
39.2833,-6.8,2014,1,"","Tanzania",0
39.2833,-6.8,2014,3,"","Tanzania",0
39.2833,-6.8,2014,4,"","Tanzania",0
39.2833,-6.8,2014,20,"","Tanzania",0
43.0929,-11.651,2014,18,"Grande Comore Comores","Comoros",0
43.2473,-11.7172,2014,38,"Moroni","Comoros",0
43.2473,-11.7172,2014,352,"Moroni","Comoros",0
43.25,-11.72,2014,18,"Grande Comore","Comoros",0
43.2799,-11.812,2014,26,"Mitsoudje","Comoros",0
43.2934,-11.3888,2014,21,"Mitsamiouli","Comoros",0
43.7334,-12.3377,2014,1,"Moheli","Comoros",0
44.4371,-12.2138,2014,2,"Anjouan","Comoros",0
45.1662,-12.8275,2014,5,"Mayotte","Comoros",0
45.2202,-12.7748,2014,5,"Mamoudzou","Mayotte",0
47.3724,-18.8873,2014,2,"Antananarivo","Madagascar",0
47.3724,-18.8873,2014,97,"Antananarivo","Madagascar",0
47.5167,-18.9333,2014,3,"","Madagascar",0
-17.4519,14.7464,2015,48,"Dakar Region","Senegal",0
-16.6409,13.2748,2015,101,"Brikama","Gambia",0
-15.6983,13.0391,2015,33,"Bounkiling","Senegal",0
-13.5784,9.64119,2015,2,"","Guinea",0
-13.5784,9.64119,2015,15,"","Guinea",0
-13.2344,8.48444,2015,3,"","Sierra Leone",0
-13.2344,8.48444,2015,6,"","Sierra Leone",0
-12.1782,12.5659,2015,89,"Kedougou Region","Senegal",0
-10.8014,6.31333,2015,4,"","Liberia",0
-8.3365,13.1372,2015,12,"Faladie","Mali",0
-8.1356,12.6129,2015,2,"Bamako","Mali",0
-8,12.65,2015,1,"","Mali",0
-4.03333,5.31667,2015,4,"","Côte d'Ivoire",0
-4.03333,5.31667,2015,8,"","Côte d'Ivoire",0
-1.51966,12.3714,2015,1,"","Burkina Faso",0
-1.24723,5.10506,2015,102,"Cape Coast","Ghana",0
-1.09028,10.8847,2015,98,"Navrongo Wa Yendi","Ghana",0
-0.375209,6.38591,2015,83,"Begoro","Ghana",0
-0.2,5.55,2015,7,"","Ghana",0
-0.2,5.55,2015,37,"","Ghana",0
-0.2,5.55,2015,95,"Accra Cape Coast","Ghana",0
0.3795,6.3916,2015,231,"Begoro Bekwai Hohoe Sunyani Tarkwa","Ghana",0
4.56122,7.76581,2015,73,"Osogbo","Nigeria",0
6.91033,6.00971,2015,36,"Nnewi","Nigeria",0
7.25427,9.05465,2015,6,"Abuja","Nigeria",0
7.48333,9.06667,2015,2,"","Nigeria",0
7.48333,9.06667,2015,13,"","Nigeria",0
8.767,3.73203,2015,17,"","Equatorial Guinea",0
9.4544,0.3901,2015,1,"","Gabon",0
11.5167,3.86667,2015,2,"Yaoundé","Cameroon",0
11.5167,3.86667,2015,4,"","Cameroon",0
11.5167,3.86667,2015,51,"","Cameroon",0
11.5167,3.86667,2015,93,"Yaoundé","Cameroon",0
13.2344,-8.83833,2015,7,"","Angola",0
13.2344,-8.83833,2015,28,"","Angola",0
13.2344,-8.83833,2015,30,"","Angola",0
13.2344,-8.83833,2015,302,"","Angola",0
13.4165,-12.5905,2015,16,"Benguela","Angola",0
13.4165,-12.5905,2015,188,"Benguela","Angola",0
14.2343,-6.2649,2015,38,"Zaire","Angola",0
14.2343,-6.2649,2015,199,"Zaire","Angola",0
15.0557,12.1348,2015,1,"","Chad",0
15.2833,-4.26667,2015,3,"","Congo",0
15.2833,-4.26667,2015,5,"","Congo",0
15.2833,-4.26667,2015,25,"Brazzaville","Congo",0
15.3139,-4.33167,2015,2,"","Democratic Republic of the Congo",0
15.3139,-4.33167,2015,4,"","Democratic Republic of the Congo",0
15.3139,-4.33167,2015,19,"Kinshasa","Democratic Republic of the Congo",0
20.4761,-9.74041,2015,4,"Lunda Sul","Angola",0
20.4761,-9.74041,2015,82,"Lunda Sul","Angola",0
28.2037,-15.4165,2015,1,"Lusaka","Zambia",0
28.2833,-15.4167,2015,4,"","Zambia",0
29.7,-0.75,2015,20,"Kihihi","Uganda",0
30.0685,0.264,2015,56,"Niabiaji","Uganda",0
30.1212,0.24,2015,82,"Sebwe","Uganda",0
30.1231,0.2639,2015,81,"Mubuku","Uganda",0
31.579,4.84099,2015,1,"","South Sudan",0
32,1,2015,2,"","Uganda",0
32.2881,2.7724,2015,77,"Gulu","Uganda",0
32.4325,15.5018,2015,2,"","Sudan",0
32.5606,15.5283,2015,9,"Khartoum","Sudan",0
32.5833,-25.9667,2015,1,"","Mozambique",0
32.9832,-24.5323,2015,87,"Chokwe","Mozambique",0
33.2315,0.442926,2015,20,"Walukuba","Uganda",0
33.7238,-16.1171,2015,89,"Moatize","Mozambique",0
34.0147,0.77578,2015,20,"Nagongera","Uganda",0
34.35,11.7667,2015,28,"Damazin","Sudan",0
34.35,11.7667,2015,78,"Damazin","Sudan",0
34.7409,-19.6115,2015,88,"Dondo","Mozambique",0
34.75024525,0.2826328939,2015,100,"Makamega. Western Province","Kenya",0
35.7517,-6.16219,2015,1,"Dodoma","Tanzania",0
36.8219,-1.29207,2015,1,"","Kenya",0
38.75,9.01667,2015,1,"","Ethiopia",0
38.9981,-13.134,2015,87,"Montepuez","Mozambique",0
39.2833,-6.8,2015,6,"","Tanzania",0
47.5167,-18.9333,2015,1,"","Madagascar",0
-17.366,14.7645,2016,1,"","Senegal",0
-17.366,14.7645,2016,40,"Dakar","Senegal",0
-17.366,14.7645,2016,81,"","Senegal",0
-17.366,14.7645,2016,161,"Dakar","Senegal",0
-17.366,14.7645,2016,182,"Dakar","Senegal",0
-15.95,18.1,2016,2,"","Mauritania",0
-15.6983,13.0391,2016,59,"Bounkiling","Senegal",0
-13.5784,9.64119,2016,1,"","Guinea",0
-13.5784,9.64119,2016,2,"","Guinea",0
-13.5784,9.64119,2016,17,"","Guinea",0
-13.5784,9.64119,2016,389,"","Guinea",0
-13.2952,9.55553,2016,190,"Maferinyah","Guinea",0
-13.2616,15.6598,2016,6,"Matam","Senegal",0
-13.2344,8.48444,2016,1,"","Sierra Leone",0
-13.2344,8.48444,2016,5,"","Sierra Leone",0
-12.2879,11.3186,2016,199,"Labé","Guinea",0
-12.1782,12.5659,2016,98,"Kedougou Region","Senegal",0
-12.1758,12.553,2016,27,"Kédougou","Senegal",0
-10.8014,6.31333,2016,1,"","Liberia",0
-10.8014,6.31333,2016,2,"","Liberia",0
-9.58389,15.2247,2016,109,"Nioro-du-Sahel","Mali",0
-8.3365,13.1372,2016,37,"Faladie","Mali",0
-8.33048,12.1151,2016,89,"Kenieroba","Mali",0
-8.2483,11.642,2016,248,"Sélingué","Mali",0
-8.20697,12.1509,2016,166,"Dangassa","Mali",0
-8,12.65,2016,2,"","Mali",0
-8,12.65,2016,252,"","Mali",0
-6.91667,10.7833,2016,41,"Bougoula-Hameau","Mali",0
-4.03333,5.31667,2016,5,"","Côte d'Ivoire",0
-1.51966,12.3714,2016,1,"","Burkina Faso",0
-1.24723,5.10506,2016,79,"Cape Coast","Ghana",0
-0.375209,6.38591,2016,70,"Begoro","Ghana",0
-0.2,5.55,2016,3,"Accra","Ghana",0
-0.2,5.55,2016,9,"","Ghana",0
-0.2,5.55,2016,29,"","Ghana",0
-0.2,5.55,2016,103,"Accra","Ghana",0
2.10528,13.5214,2016,3,"","Niger",0
2.62885,6.49686,2016,1,"","Benin",0
3.38457,6.51941,2016,25,"Lagos","Nigeria",0
3.38457,6.51941,2016,26,"Lagos","Nigeria",0
3.38457,6.51941,2016,65,"Lagos","Nigeria",0
5.62276,6.33068,2016,25,"Edo","Nigeria",0
7.48333,9.06667,2016,1,"","Nigeria",0
7.48333,9.06667,2016,4,"","Nigeria",0
7.48333,9.06667,2016,46,"","Nigeria",0
7.48333,9.06667,2016,157,"","Nigeria",0
8.767,3.73203,2016,3,"","Equatorial Guinea",0
8.767,3.73203,2016,169,"","Equatorial Guinea",0
9.4544,0.3901,2016,2,"","Gabon",0
9.76464,4.05885,2016,120,"Douala","Cameroon",0
11.5167,3.86667,2016,10,"","Cameroon",0
11.5167,3.86667,2016,15,"","Cameroon",0
11.5167,3.86667,2016,23,"Yaoundé","Cameroon",0
11.5167,3.86667,2016,50,"Yaoundé","Cameroon",0
13.2344,-8.83833,2016,8,"","Angola",0
13.2344,-8.83833,2016,18,"","Angola",0
13.2344,-8.83833,2016,40,"","Angola",0
15.0557,12.1348,2016,1,"","Chad",0
15.0557,12.1348,2016,2,"","Chad",0
15.2833,-4.26667,2016,2,"","Congo",0
15.2833,-4.26667,2016,7,"","Congo",0
15.3139,-4.33167,2016,8,"","Democratic Republic of the Congo",0
15.3139,-4.33167,2016,34,"","Democratic Republic of the Congo",0
15.3139,-4.33167,2016,99,"Kinshasa","Democratic Republic of the Congo",0
16.7001,8.46722,2016,157,"Komé","Chad",0
16.7001,8.46722,2016,169,"Komé","Chad",0
16.7001,8.46722,2016,180,"Komé","Chad",0
18.4241,-33.9249,2016,2,"","South Africa",0
18.5833,4.36667,2016,1,"","Central African Republic",0
18.5833,4.36667,2016,2,"","Central African Republic",0
26.7976,-16.3888,2016,74,"MM Hospital","Zambia",0
27.0018,-16.3811,2016,491,"Mangunza","Zambia",0
27.036,-16.2602,2016,87,"Kabanze","Zambia",0
27.0443,-16.4361,2016,417,"Nalube","Zambia",0
27.0579,-16.3074,2016,228,"Simaubi","Zambia",0
27.1647,-16.2408,2016,218,"Mapanza","Zambia",0
27.1763,-16.3403,2016,342,"Chilalantambo","Zambia",0
28.2833,-15.4167,2016,1,"","Zambia",0
28.2833,-15.4167,2016,2,"","Zambia",0
28.2833,-15.4167,2016,213,"","Zambia",0
29.662,-4.88376,2016,101,"Kigoma","Tanzania",0
29.6745,-4.91155,2016,88,"Ujiji","Tanzania",0
29.7426,-0.819525,2016,37,"Kanungu","Uganda",0
30.91,3.03,2016,33,"Arua","Uganda",0
31.395,0.5575,2016,28,"Mubende","Uganda",0
32,1,2016,1,"","Uganda",0
32,1,2016,3,"","Uganda",0
32,1,2016,3,"null","Uganda",0
32,15,2016,1,"null","Sudan",0
32.4325,15.5018,2016,4,"Khartoum","Sudan",0
32.4325,15.5018,2016,5,"","Sudan",0
32.5833,-25.9667,2016,2,"","Mozambique",0
32.5833,-25.9667,2016,3,"","Mozambique",0
32.6365,-25.0247,2016,99,"Magude District","Mozambique",0
32.8011,2.42861,2016,26,"Kole","Uganda",0
32.8333,1.63333,2016,30,"Amolatar","Uganda",0
33.2042,0.424444,2016,34,"Jinja","Uganda",0
33.3306,2.98472,2016,31,"Agago","Uganda",0
33.7,-13.95,2016,1,"","Malawi",0
34,-13.5,2016,3,"null","Malawi",0
34.1811,0.692778,2016,37,"Tororo","Uganda",0
34.1811,0.692778,2016,56,"Tororo","Uganda",0
34.2422,-0.0617328,2016,317,"Siaya district","Kenya",0
35.0181,-15.7593,2016,2,"Blantyre","Malawi",0
35.8167,-8.8,2016,88,"Mlimba","Tanzania",0
36.8219,-1.29207,2016,1,"","Kenya",0
36.8219,-1.29207,2016,318,"","Kenya",0
36.9541,-8.8137,2016,96,"Morogoro","Tanzania",0
38,8,2016,1,"null","Ethiopia",0
38.3438,-4.75269,2016,88,"Mkuzi","Tanzania",0
38.75,9.01667,2016,1,"","Ethiopia",0
38.8205,-7.3238,2016,79,"Pwani","Tanzania",0
38.8205,16.2584,2016,50,"Semenawi Keyih Bahri","Eritrea",0
38.9929,-6.78132,2016,80,"Kibaha District","Tanzania",0
39.1023,-5.0889,2016,100,"Tanga","Tanzania",0
39.2833,-6.8,2016,7,"","Tanzania",0
39.2833,-6.8,2016,325,"","Tanzania",0
39.85,-3.63333,2016,142,"Kilifi","Kenya",0
45.4905,2.77703,2016,50,"Jowhar","Somalia",0
47.5101,-18.875,2016,1,"Antananarivo","Madagascar",0
-23.5109,14.9431,2017,38,"Praia","Cape Verde",0
-17.366,14.7645,2017,31,"Dakar","Senegal",0
-16.9335,14.7905,2017,38,"","Senegal",0
-16.9256,14.7667,2017,38,"Thiès","Senegal",0
-16.6409,13.2748,2017,41,"Brikama","Gambia",0
-15.95,18.1,2017,1,"","Mauritania",0
-15.6983,13.0391,2017,34,"Bounkiling","Senegal",0
-13.5784,9.64119,2017,13,"","Guinea",0
-13.5784,9.64119,2017,45,"","Guinea",0
-13.2344,8.48444,2017,4,"","Sierra Leone",0
-12.1782,12.5659,2017,123,"Kedougou Region","Senegal",0
-10.8014,6.31333,2017,3,"","Liberia",0
-10.8014,6.31333,2017,8,"","Liberia",0
-8.3365,13.1372,2017,8,"Faladie","Mali",0
-4.03333,5.31667,2017,7,"","Côte d'Ivoire",0
-4.03333,5.31667,2017,9,"","Côte d'Ivoire",0
-4.03333,5.31667,2017,26,"","Côte d'Ivoire",0
-0.2,5.55,2017,11,"","Ghana",0
-0.2,5.55,2017,19,"","Ghana",0
2.10528,13.5214,2017,5,"","Niger",0
2.62885,6.49686,2017,3,"","Benin",0
2.62885,6.49686,2017,155,"","Benin",0
3.233,6.6909,2017,8,"Adpo-Odo/Ota","Nigeria",0
7.48333,9.06667,2017,88,"","Nigeria",0
8.767,3.73203,2017,1,"","Equatorial Guinea",0
8.767,3.73203,2017,63,"","Equatorial Guinea",0
9.4544,0.3901,2017,8,"","Gabon",0
11.5167,3.86667,2017,14,"","Cameroon",0
11.5167,3.86667,2017,17,"","Cameroon",0
13.2344,-8.83833,2017,1,"","Angola",0
13.2344,-8.83833,2017,2,"","Angola",0
13.2344,-8.83833,2017,18,"","Angola",0
13.2344,-8.83833,2017,38,"","Angola",0
14.4351,-5.56277,2017,27,"Kimpese","Democratic Republic of the Congo",0
15.0557,12.1348,2017,2,"","Chad",0
15.2833,-4.26667,2017,3,"","Congo",0
15.2833,-4.26667,2017,6,"","Congo",0
15.3139,-4.33167,2017,3,"","Democratic Republic of the Congo",0
15.3139,-4.33167,2017,10,"","Democratic Republic of the Congo",0
15.3139,-4.33167,2017,61,"","Democratic Republic of the Congo",0
15.3139,-4.33167,2017,100,"Kinshasa","Democratic Republic of the Congo",0
15.4009,-14.339789,2017,38,"Kimbango Angola","Angola",0
15.7311,12.7777,2017,78,"Huambo","Angola",0
16.7001,8.46722,2017,189,"Komé","Chad",0
18.2229,0.002214,2017,63,"Bolenge","Democratic Republic of the Congo",0
18.4202,-4.42545,2017,73,"Vanga","Democratic Republic of the Congo",0
18.4241,-33.9249,2017,3,"","South Africa",0
18.5833,4.36667,2017,2,"","Central African Republic",0
20.2963,3.32167,2017,64,"Karawa","Democratic Republic of the Congo",0
22.3177,-6.02425,2017,104,"Mikalayi","Democratic Republic of the Congo",0
22.31822128,-6.024428874,2017,104,"Mikalayi","DRC",0
25.0033,-8.73439,2017,72,"Kamina","Democratic Republic of the Congo",0
25.1875,0.512155,2017,92,"Kisangani","Democratic Republic of the Congo",0
25.2202,0.515363,2017,21,"Kabondo","Democratic Republic of the Congo",0
26.325,-10.6152,2017,60,"Fungurume","Democratic Republic of the Congo",0
26.6185,-2.56638,2017,67,"Kalima","Democratic Republic of the Congo",0
26.7976,-16.3888,2017,69,"MM Hospital","Zambia",0
26.9522,-10.9424,2017,62,"Kapolowe","Democratic Republic of the Congo",0
26.9554,-16.5739,2017,26,"Mbabala","Zambia",0
27.0018,-16.3811,2017,193,"Mangunza","Zambia",0
27.0096,-16.5745,2017,237,"Kamwanu","Zambia",0
27.036,-16.2602,2017,94,"Kabanze","Zambia",0
27.0443,-16.4361,2017,117,"Nalube","Zambia",0
27.0579,-16.3074,2017,190,"Simaubi","Zambia",0
27.1647,-16.2408,2017,378,"Mapanza","Zambia",0
27.1763,-16.3403,2017,232,"Chilalantambo","Zambia",0
27.4775,-11.6689,2017,53,"Lubumbashi","Democratic Republic of the Congo",0
28.2833,-15.4167,2017,1,"","Zambia",0
28.2833,-15.4167,2017,6,"","Zambia",0
28.2833,-15.4167,2017,70,"","Zambia",0
28.8314,-2.22502,2017,73,"Katana","Democratic Republic of the Congo",0
29.4461,-1.1855,2017,90,"Rutshuru","Democratic Republic of the Congo",0
29.44803702,-1.185623411,2017,90,"Rutshuru","DRC",0
29.662,-4.88376,2017,138,"Kigoma","Tanzania",0
29.7426,-0.819525,2017,48,"Kanungu","Uganda",0
30.3801,-5.09539,2017,67,"Uvinza","Tanzania",0
30.383,-5.1015,2017,67,"Uvinza District","Tanzania",0
31.6326,-1.93493,2017,81,"Ilemela","Tanzania",0
31.8119,-25.6699,2017,164,"Mpumalanga","South Africa",0
31.8119,-25.6699,2017,164,"Mpumulanga","South Africa",0
32,1,2017,1,"","Uganda",0
32,1,2017,16,"","Uganda",0
32.5833,-25.9667,2017,4,"","Mozambique",0
32.5833,-25.9667,2017,38,"","Mozambique",0
32.5881,0.381155,2017,5,"null","Uganda",0
32.8333,1.63333,2017,48,"Amolatar district","Uganda",0
33.2042,0.424444,2017,48,"Jinja","Uganda",0
33.2042,0.424444,2017,48,"Jinja district","Uganda",0
33.9446,-9.55629,2017,17,"Kyela","Tanzania",0
34,-13.5,2017,2,"null","Malawi",0
34.3833,-0.183333,2017,110,"Asembo","Kenya",0
34.8045,-11.2911,2017,31,"Nyasa District","Tanzania",0
37.3354,-11.0369,2017,65,"Tunduru District","Tanzania",0
37.3392,-11.0468,2017,65,"Tunduru","Tanzania",0
37.8778,15.5407,2017,19,"Akordat","Eritrea",0
38,8,2017,1,"null","Ethiopia",0
38.3403,-4.84273,2017,31,"Nyasa","Tanzania",0
38.4922,-11.1448,2017,16,"Nanyumbu District","Tanzania",0
38.4999,-11.1335,2017,16,"Nynyumbu","Tanzania",0
38.75,9.01667,2017,1,"","Ethiopia",0
38.8,-10.717,2017,82,"Masasi","Tanzania",0
38.9929,-6.78132,2017,112,"Kibaha District","Tanzania",0
38.9929,-6.7813,2017,112,"Kibaha","Tanzania",0
39.0218,-10.7528,2017,13,"Mtwara","Tanzania",0
39.089,15.449,2017,15,"Ghindae","Eritrea",0
39.2833,-6.8,2017,6,"","Tanzania",0
39.2833,-6.8,2017,28,"","Tanzania",0
39.3933,-6.10809,2017,139,"Zanzibar","Tanzania",0
40.1821,-10.2787,2017,13,"Mtwara District","Tanzania",0
43.24731,-11.717216,2017,60,"Ngazidja","Comoros",0
43.2736,-11.803499,2017,12,"Ngazidja","Comoros",0
43.33333,-11.583333,2017,16,"Oichili Yamboini","Comoros",0
-17.366,14.7645,2018,47,"Dakar","Senegal",0
-16.9256,14.7896,2018,73,"Thiès","Senegal",0
-16.2341,14.658,2018,190,"Diourbel","Senegal",0
-16.0833,11.25,2018,14,"Bissagos","Guinea-Bissau",0
-16.0762,14.1608,2018,14,"Kaolack","Senegal",0
-15.6,11.8667,2018,2,"","Guinea-Bissau",0
-13.5784,9.64119,2018,19,"","Guinea",0
-13.2344,8.48444,2018,6,"","Sierra Leone",0
-12.1782,12.5659,2018,290,"Kedougou Region","Senegal",0
-11.7383,7.96472,2018,95,"Bo","Sierra Leone",0
-11.1366,6.8182,2018,90,"Garwula","Liberia",0
-11.1363,6.81647,2018,90,"Sinje","Liberia",0
-10.8014,6.31333,2018,1,"","Liberia",0
-10.62,6.44723,2018,91,"Bensonville","Liberia",0
-10.3528,6.52959,2018,89,"Kakata","Liberia",0
-8.84029,6.96139,2018,89,"Saclepea","Liberia",0
-4.914,10.2799,2018,108,"Niangoloko","Burkina Faso",0
-4.03333,5.31667,2018,7,"","Côte d'Ivoire",0
-2.3561,13.2018,2018,120,"Gourcy","Burkina Faso",0
-2.18869,12.6842,2018,139,"Nanoro","Burkina Faso",0
-1.51966,12.3714,2018,1,"","Burkina Faso",0
-0.3302,5.6417,2018,19,"Oduman","Ghana",0
-0.2,5.55,2018,7,"","Ghana",0
-0.09,5.6256,2018,41,"Shai-Osudoku","Ghana",0
1.2125,6.13778,2018,2,"","Togo",0
2.0703,7.1829,2018,115,"Bohicon","Benin",0
2.10528,13.5214,2018,2,"","Niger",0
2.62885,6.49686,2018,4,"","Benin",0
2.9352,11.1301,2018,30,"Kandi","Benin",0
7.48333,9.06667,2018,156,"","Nigeria",0
7.5621,6.3061,2018,100,"Agbani","Nigeria",0
8.4246,11.7699,2018,100,"Kura","Nigeria",0
8.70697,3.75353,2018,112,"Malabo","Equatorial Guinea",0
8.70697,3.75353,2018,131,"Malabo","Equatorial Guinea",0
8.74812,3.61983,2018,85,"Bioko Island","Equatorial Guinea",0
8.9134,9.5256,2018,100,"Barkin Ladi","Nigeria",0
9.77049,1.86165,2018,175,"Bata","Equatorial Guinea",0
11.2281,2.0181,2018,170,"Ebebiyin","Equatorial Guinea",0
11.5167,3.86667,2018,11,"","Cameroon",0
11.5167,3.86667,2018,54,"Yaoundé","Cameroon",0
11.5167,3.86667,2018,114,"Yaoundé","Cameroon",0
11.5167,3.86667,2018,150,"Yaoundé","Cameroon",0
12.2018,-5.5762,2018,50,"Cabinda city","Angola",0
13.2344,-8.83833,2018,5,"","Angola",0
15.0557,12.1348,2018,1,"","Chad",0
15.2833,-4.26667,2018,1,"","Congo",0
15.3139,-4.33167,2018,8,"","Democratic Republic of the Congo",0
15.3139,-4.33167,2018,304,"","Democratic Republic of the Congo",0
16.7001,8.46722,2018,3,"Komé","Chad",0
17.04288452,-4.809100872,2018,39,"Kenge","DRC",0
18.5833,4.36667,2018,70,"Bangui","Central African Republic",0
18.5833,4.36667,2018,117,"Bangui","Central African Republic",0
25.20465262,0.5188500975,2018,17,"Kisangani","DRC",0
26.7976,-16.3888,2018,8,"MM Hospital","Zambia",0
26.9554,-16.5739,2018,218,"Mbabala","Zambia",0
27.0443,-16.4361,2018,34,"Nalube","Zambia",0
27.1647,-16.2408,2018,61,"Mapanza","Zambia",0
27.1763,-16.3403,2018,33,"Chilalantambo","Zambia",0
28.2833,-15.4167,2018,1,"","Zambia",0
28.83456278,-2.223884476,2018,85,"Katana","DRC",0
29.662,-4.88376,2018,96,"Kigoma","Tanzania",0
29.7426,-0.819525,2018,38,"Kanungu","Uganda",0
30.0867,0.172391,2018,23,"Kasese","Uganda",0
30.0867,0.172391,2018,24,"Kasese","Uganda",0
30.6367,-29.8032,2018,532,"Mpumalanga","South Africa",0
30.8442,-22.7108,2018,2,"Ha Lambani","South Africa",0
30.91,3.03,2018,24,"Arua","Uganda",0
30.91,3.03,2018,30,"Arua","Uganda",0
30.91,3.03,2018,59,"Arua","Uganda",0
30.9614,3.41397,2018,28,"Koboko","Uganda",0
30.9614,3.41397,2018,34,"Koboko","Uganda",0
31.3556,1.42975,2018,45,"Hoima","Uganda",0
31.395,0.5575,2018,41,"Mubende","Uganda",0
32,1,2018,169,"","Uganda",0
32,15,2018,3,"null","Sudan",0
32.5833,-25.9667,2018,1,"","Mozambique",0
32.5833,-25.9667,2018,91,"Maputo","Mozambique",0
32.5881,0.313611,2018,3,"null","Uganda",0
32.6365,-25.0247,2018,107,"Magude District","Mozambique",0
32.7205,2.01838,2018,42,"Aduku","Uganda",0
32.8011,2.42861,2018,31,"Kole","Uganda",0
32.8011,2.42861,2018,36,"Kole","Uganda",0
32.8333,1.63333,2018,16,"Amolatar","Uganda",0
32.8333,1.63333,2018,27,"Amolatar","Uganda",0
33.2042,0.424444,2018,40,"Jinja","Uganda",0
33.7238,-16.1171,2018,12,"Moatize","Mozambique",0
33.9602,1.91601,2018,42,"Katakwi","Uganda",0
34,-13.5,2018,1,"null","Malawi",0
34.0344,0.41291,2018,83,"Masafu","Uganda",0
34.1811,0.692778,2018,35,"Tororo","Uganda",0
34.1811,0.692778,2018,43,"Tororo","Uganda",0
34.2422,-0.0617328,2018,98,"Siaya district","Kenya",0
34.45357531,-0.5352323071,2018,69,"Homa Bay","Kenya",0
34.5587,0.56946,2018,37,"Bungoma","Kenya",0
34.5864,8.2412,2018,5,"Gambella","Ethiopia",0
35.3714,-23.3216,2018,39,"Massinga","Mozambique",0
35.711,-17.9789,2018,38,"Mopeia","Mozambique",0
36.9541,-8.8137,2018,87,"Morogoro","Tanzania",0
38,8,2018,1,"null","Ethiopia",0
38.8205,-7.3238,2018,79,"Pwani","Tanzania",0
38.9981,-13.134,2018,20,"Montepuez","Mozambique",0
39.1023,-5.0889,2018,97,"Tanga","Tanzania",0
39.2833,-6.8,2018,4,"","Tanzania",0
39.3933,-6.10809,2018,414,"Zanzibar","Tanzania",0
39.85,-3.6333,2018,211,"Kilifi district","Kenya",0
45.11692954,2.143163169,2018,84,"Afgoi and Balad","Somalia",0
46.6843,-16.1008,2018,31,"Ankazomborona","Madagascar",0
47.5541,-23.5251,2018,50,"Matanga","Madagascar",0
NA,-6.433333,2018,35,"Bagamoyo","Tanzania",0
-17.366,14.7645,2019,27,"Dakar","Senegal",0
-16.9256,14.7896,2019,83,"Thiès","Senegal",0
-16.2341,14.658,2019,97,"Diourbel","Senegal",0
-14.9422,12.9004,2019,200,"Kolda","Senegal",0
-12.1782,12.5659,2019,100,"Kedougou Region","Senegal",0
-7.559,12.865,2019,170,"Koulikoro ","Mali",0
1.2667,10.6167,2019,53,"Tanguiéta","Benin",0
2.9352,11.1301,2019,60,"Kandi","Benin",0
8.767,3.73203,2019,139,"","Equatorial Guinea",0
9.29454,0.411743,2019,58,"Libreville","Gabon",0
9.76464,4.05885,2019,33,"Douala","Cameroon",0
13.6154,9.9696,2019,7,"Mayo-Oulo","Cameroon",0
14.321,10.5925,2019,17,"Maroua","Cameroon",0
14.4985,10.9715,2019,28,"Pete","Cameroon",0
15.3139,-4.33167,2019,104,"Kinshasa","Democratic Republic of the Congo",0
15.3139,-4.33167,2019,153,"Kinshasa","Democratic Republic of the Congo",0
15.4009,-14.339789,2019,54,"Bambi Angola","Angola",0
15.4107,-4.40679,2019,80,"Kingasani","Democratic Republic of the Congo",0
18.2229,0.002214,2019,60,"Bolenge","Democratic Republic of the Congo",0
18.2229,0.002214,2019,76,"Bolenge","Democratic Republic of the Congo",0
18.4202,-4.42545,2019,86,"Vanga","Democratic Republic of the Congo",0
20.2963,3.32167,2019,83,"Karawa","Democratic Republic of the Congo",0
25.0033,-8.73439,2019,81,"Kamina","Democratic Republic of the Congo",0
25.1875,0.512155,2019,95,"Kisangani","Democratic Republic of the Congo",0
25.2202,0.515363,2019,17,"Kabondo","Democratic Republic of the Congo",0
26.325,-10.6152,2019,58,"Fungurume","Democratic Republic of the Congo",0
26.325,-10.6152,2019,69,"Fungurume","Democratic Republic of the Congo",0
26.6185,-2.56638,2019,81,"Kalima","Democratic Republic of the Congo",0
27.4775,-11.6689,2019,82,"Lubumbashi","Democratic Republic of the Congo",0
28.3959,4.566,2019,86,"Yambio","South Sudan",0
28.8314,-2.22502,2019,76,"Katana","Democratic Republic of the Congo",0
28.8314,-2.22502,2019,86,"Katana","Democratic Republic of the Congo",0
29.7426,-0.819525,2019,37,"Kanungu","Uganda",0
29.7426,-0.819525,2019,64,"Kanungu","Uganda",0
29.9856,-1.24196,2019,13,"Kabale","Uganda",0
30.0867,0.172391,2019,69,"Kasese","Uganda",0
30.1,-1.1933,2019,26,"Rukiga","Uganda",0
30.6367,-29.8032,2019,2385,"Nkomazi","South Africa",0
30.9614,3.41397,2019,5,"Koboko","Uganda",0
30.9614,3.41397,2019,20,"Koboko","Uganda",0
31.395,0.5575,2019,24,"Mubende","Uganda",0
31.395,0.5575,2019,27,"Mubende","Uganda",0
32,1,2019,16,"","Uganda",0
32.8011,2.42861,2019,65,"Kole","Uganda",0
32.8225,-5.03225,2019,96,"Tabora","Tanzania",0
32.8333,1.63333,2019,244,"Amolatar","Uganda",0
32.9,-2.5,2019,79,"Mwanza","Tanzania",0
33.2042,0.424444,2019,50,"Jinja","Uganda",0
33.2042,0.424444,2019,91,"Jinja","Uganda",0
33.3306,2.98472,2019,56,"Agago","Uganda",0
33.45,-8.9,2019,90,"Mbeya","Tanzania",0
33.9602,1.91601,2019,65,"Katakwi","Uganda",0
34.1811,0.692778,2019,38,"Tororo","Uganda",0
34.1811,0.692778,2019,73,"Tororo","Uganda",0
34.4492,1.39583,2019,16,"Kapchorwa","Uganda",0
34.4492,1.39583,2019,22,"Kapchorwa","Uganda",0
34.53098627,-0.1082610621,2019,48,"Kombewa","Kenya",0
34.75179107,0.2829762676,2019,106,"Kakamega","Kenya",0
34.768,-0.091702,2019,196,"Kisumu","Kenya",0
38.7325,14.7239,2019,4,"Emni Haily","Eritrea",0
38.8339,15.0896,2019,1,"Dubarwa","Eritrea",0
40.1821,-10.2787,2019,88,"Mtwara District","Tanzania",0
43.14,11.54,2019,9,"Djibouti city","Djibouti",0
-16.9256,14.7896,2020,49,"Thiès","Senegal",0
-16.2341,14.658,2020,99,"Diourbel","Senegal",0
-16.0762,14.1608,2020,94,"Kaolack","Senegal",0
-14.9422,12.9004,2020,95,"Kolda","Senegal",0
-12.1782,12.5659,2020,96,"Kedougou Region","Senegal",0
-4.00826,5.35995,2020,1,"Abidjan","Côte d'Ivoire",0
2.10674,13.5098,2020,88,"Tessaoua","Niger",0
3.44667,11.8878,2020,85,"Gaya","Niger",0
7.98677,16.9744,2020,75,"Agadez","Niger",0
10.0588,5.4539,2020,100,"Dschang","Cameroon",0
13.6643,-8.47178,2020,95,"Dande","Angola",0
14.4351877554013,-5.56068375949112,2020,200,"Kimpese","DRC",0
19.61385005,-4.18082081,2020,140,"Ipamu","DRC",0
29.662,-4.88376,2020,70,"Kigoma","Tanzania",0
30.0867,0.172391,2020,93,"Kasese","Uganda",0
30.91,3.03,2020,81,"Arua","Uganda",0
32.8,3.53333,2020,85,"Lamwo","Uganda",0
32.8333,1.63333,2020,85,"Amolatar","Uganda",0
33.2042,0.424444,2020,96,"Jinja","Uganda",0
33.3306,2.98472,2020,80,"Agago","Uganda",0
34.1811,0.692778,2020,41,"Tororo","Uganda",0
34.1811,0.692778,2020,105,"Tororo","Uganda",0
38.8205,-7.3238,2020,83,"Pwani","Tanzania",0
39.1023,-5.0889,2020,100,"Tanga","Tanzania",0
40.1821,-10.2787,2020,103,"Mtwara District","Tanzania",0
46.68270694,-16.10078783,2020,179,"Ankazomborona","Madagascar",0
47.55755036,-23.52392899,2020,179,"Matanga","Madagascar",0
47.78428357,-22.87429307,2020,179,"Vohitromby","Madagascar",0
48.04654048,-21.39135876,2020,176,"Antsenavolo","Madagascar",0
-12.3106,12.5387,2021,9,"Bandafassi","Senegal",0
-12.1833,12.55,2021,13,"Dalaba","Senegal",0
-12.1833,12.55,2021,27,"Camp-Militaire","Senegal",0
-12.1782,12.5659,2021,39,"Kedougou Region","Senegal",0
3.91667,7.39639,2021,53,"Ibadan","Nigeria",0
20.8825729946294,-0.284062662210556,2021,179,"Boende","DRC",0
22.3181207250254,-6.02371642420627,2021,180,"Mikalayi","DRC",0
26.9523513695667,-10.9427141312518,2021,180,"Kapolowe","DRC",0
29.128,-2.884,2021,157,"Cibitoke Province","Burundi",0
29.6615,-4.8824,2021,100,"Kigoma","Tanzania",0
30.0867,0.172391,2021,78,"Kasese","Uganda",0
30.91,3.03,2021,69,"Arua","Uganda",0
30.9614,3.41397,2021,47,"Koboko","Uganda",0
31.2626366,-1.3001115,2021,709,"Kagera","Tanzania",0
31.3556,1.42975,2021,82,"Hoima","Uganda",0
32.5373,-8.5238,2021,377,"Songwe","Tanzania",0
32.5833,-25.9667,2021,100,"Maputo","Mozambique",0
32.5833,-25.9667,2021,297,"Maputo","Mozambique",0
32.8,3.53333,2021,58,"Lamwo","Uganda",0
32.8225,-5.03225,2021,107,"Tabora","Tanzania",0
32.8269,-5.0425,2021,498,"Tabora","Tanzania",0
32.8756,-18.9344,2021,98,"Manica","Mozambique",0
32.9,-2.5,2021,96,"Mwanza","Tanzania",0
33.2042,0.424444,2021,95,"Jinja","Uganda",0
33.3306,2.98472,2021,54,"Agago","Uganda",0
33.45,-8.9,2021,43,"Mbeya","Tanzania",0
34.1321,3.51472,2021,60,"Kaabong","Uganda",0
34.4974678903006,-1.84150850773502,2021,585,"Mara","Tanzania",0
34.5589991,-0.12092436,2021,100,"Kombewa Sub-County","Kenya",0
35.7516,-6.163,2021,188,"Dodoma","Tanzania",0
35.98257531,0.4697033655,2021,100,"Marigat Sub-County","Kenya",0
36.15951757,-0.2873840683,2021,100,"Lanet Regional","Kenya",0
36.2631,-10.6879,2021,68,"Ruvuma","Tanzania",0
36.68059751,0.4884623995,2021,100,"Laikipia County","Kenya",0
36.9541,-4.315,2021,236,"Manyara","Tanzania",0
36.9541,6.5157,2021,10,"Southern Nations Nationalities and Peoples","Ethiopia",0
37.02856061,0.02986021814,2021,4,"Laikipia Air Base","Kenya",0
37.3556,-3.0674,2021,204,"Kilimanjaro","Tanzania",0
37.505,-13.191,2021,100,"Marrupa","Mozambique",0
38.7158,7.931,2021,119,"Batu","Ethiopia",0
38.7912,9.0028,2021,24,"Oromia","Ethiopia",0
39.1023,-5.0889,2021,56,"Tanga","Tanzania",0
39.2894,-6.8165,2021,161,"Dar es Salaam","Tanzania",0
40.176,-10.3112,2021,170,"Mtwara","Tanzania",0
40.1821,-10.2787,2021,87,"Mtwara District","Tanzania",0
40.6347,12.1056,2021,7,"Afar","Ethiopia",0
43.7908,6.6612,2021,7,"Somali","Ethiopia",0
-12.3106,12.5387,2022,2,"Bandafassi","Senegal",0
-12.1833,12.55,2022,11,"Dalaba","Senegal",0
-4.29177,11.1781,2022,167,"Bobo Dioulasso","Burkina Faso",0
1.19777,7.75615,2022,165,"Anie","Togo",0
1.4193,6.65634,2022,192,"Kouve","Togo",0
11.5167,3.86667,2022,250,"Yaoundé","Cameroon",0
11.5202,3.8617,2022,37,"Yaounde","Cameroon",0
11.7744,2.68369,2022,55,"Bimengue","Cameroon",0
29.7426,-4.7232,2022,88,"Kigoma","Tanzania",0
30.0867,0.172391,2022,93,"Kasese","Uganda",0
30.91,3.03,2022,79,"Arua","Uganda",0
32.5732,-25.9692,2022,1154,"Pooled 9 sites","Mozambique",0
32.5816,0.3152,2022,1,"","Uganda",0
32.5833,-25.9667,2022,772,"Maputo","Mozambique",0
32.59273536,-3.83825827,2022,62,"Kahama","Tanzania",0
32.65205397,-2.638057438,2022,67,"Sengerema","Tanzania",0
32.8333,1.63333,2022,13,"Amolatar","Uganda",0
33.08605672,-2.840218077,2022,15,"Misungwi","Tanzania",0
33.08605672,-2.840218077,2022,155,"Misungwi","Tanzania",0
33.1852418,-4.21584628,2022,157,"Nzega","Tanzania",0
33.1852418,-4.21584628,2022,174,"Nzega","Tanzania",0
34.0217,0.2225,2022,24,"Sio Port","Kenya",0
34.1532,2.83087,2022,746,"Karamoja","Uganda",0
34.1685,0.3618,2022,94,"Matayos","Kenya",0
34.45357531,-0.5352323071,2022,156,"Homa Bay","Kenya",0
34.53098627,-0.1082610621,2022,21,"Kombewa","Kenya",0
34.7291924,-2.989032756,2022,114,"Kusini","Tanzania",0
34.75179107,0.2829762676,2022,5,"Kakamega","Kenya",0
36.87063208,-6.139077183,2022,50,"Geita","Tanzania",0
36.9541,-8.8137,2022,88,"Morogoro","Tanzania",0
37.0017815,-6.822508276,2022,57,"Kilosa","Tanzania",0
37.65998738,-6.828991414,2022,194,"Morogoro","Tanzania",0
38.7909651,-5.175810693,2022,245,"Muheza","Tanzania",0
38.8205,-7.3238,2022,88,"Pwani","Tanzania",0
38.89976425,-6.445015513,2022,237,"Bagamoyo","Tanzania",0
38.93825056,-7.725588857,2022,29,"Kibiti","Tanzania",0
38.93825056,-7.725588857,2022,70,"Kigamboni","Tanzania",0
38.97339816,-5.426208197,2022,96,"Pangani","Tanzania",0
39.1023,-5.0889,2022,88,"Tanga","Tanzania",0
39.10440268,-5.088333943,2022,165,"Tanga","Tanzania",0
39.10440268,-5.088333943,2022,208,"Tanga","Tanzania",0
39.13214141,-6.702114462,2022,32,"Kinondoni","Tanzania",0
39.19891907,-6.165504766,2022,501,"Mjini","Tanzania",0
39.20383204,-7.122089356,2022,161,"Mkuranga","Tanzania",0
39.22827773,-6.13511296,2022,166,"Magharibi B","Tanzania",0
39.30828919,-5.843138307,2022,77,"Kaskazini B","Zanzibar",0
39.34649989,-6.104906788,2022,187,"Kati","Tanzania",0
39.40170116,-6.919452489,2022,194,"Temeke","Tanzania",0
39.50004316,-8.961698315,2022,37,"Kilwa","Tanzania",0
39.73379327,-7.890127218,2022,188,"Mafia","Tanzania",0
40.17347327,-10.31037648,2022,162,"Mtwara","Tanzania",0
46.68205087,-16.10100059,2022,100,"Ankazomborona","Madagascar",0
47.59150812,-23.35030269,2022,100,"Vangaindrano","Madagascar",0
-17.4519,14.6867,2023,30,"Dalaba","Senegal",0
-12.1833,12.55,2023,20,"Ndiormi Kédougou","Senegal",0
-12.1782,12.5659,2023,51,"Kedougou Region","Senegal",0
12.0318,9.4536,2023,17,"Numan","Nigeria",0
12.15,-15.195,2023,68,"Namibe","Angola",0
12.4954,9.2035,2023,18,"Yola","Nigeria",0
13.2606,10.2604,2023,18,"Mubi","Nigeria",0
13.4165,-12.5905,2023,125,"Benguela","Angola",0
14.2343,-6.2649,2023,134,"Zaire","Angola",0
14.4,-18.4,2023,27,"Omusati","Namibia",0
14.4,-18.4,2023,136,"Omusati","Namibia",0
15.0506,-7.61383,2023,122,"Uige","Angola",0
16.8,-17.6,2023,39,"Ohangwena","Namibia",0
17.5667,-12.5167,2023,132,"Bie","Angola",0
18.91,-18.25,2023,62,"Kavango West","Namibia",0
19.5,-16.083,2023,113,"Cuando Cubango","Angola",0
20,-12.2,2023,116,"Moxico","Angola",0
20.4761,-9.74041,2023,121,"Lunda Sul","Angola",0
20.5833,-18.3333,2023,69,"Kavango East","Namibia",0
22.0920581711639,-16.320877,2023,87,"Shangombo","Zambia",0
22.6131467955543,-14.9847688855483,2023,27,"Kalabo","Zambia",0
22.6883969,-13.0829762503505,2023,76,"Chavuma","Zambia",0
23.1096212243617,-13.5428476783936,2023,30,"Zambezi","Zambia",0
24.244560319273,-13.7075754671222,2023,28,"Kabompo","Zambia",0
24.2786266840836,-17.5006663696596,2023,29,"Sesheke","Zambia",0
24.3148557099033,-13.3954756079073,2023,80,"Manyinga","Zambia",0
24.6667,-17.5,2023,1186,"Zambezi","Namibia",0
24.6686710138005,-11.9991365981551,2023,38,"Mwinilunga","Zambia",0
25.6188239416977,-17.1101467178538,2023,25,"Kazungula","Zambia",0
27.3876882785977,-16.694932641829,2023,66,"Pemba","Zambia",0
27.4790061145828,-12.975353659997,2023,29,"Lufwanyama","Zambia",0
27.5946677955472,-14.6390156858519,2023,103,"Chibombo","Zambia",0
27.6701999956006,-17.0696410086348,2023,25,"Sinazongwe","Zambia",0
27.764370984727,-13.5903680710921,2023,29,"Mpongwe","Zambia",0
27.8138171006528,-12.3620754116079,2023,26,"Chililabombwe","Zambia",0
27.9656549656594,-12.7723609990788,2023,28,"Kalulushi","Zambia",0
28.2404935865571,-16.0407851434421,2023,70,"Chikankata","Zambia",0
28.2758298188576,-12.5689052427625,2023,64,"Mufulira","Zambia",0
28.3742570193267,-13.0873242362137,2023,55,"Luanshya","Zambia",0
28.3802507402697,-14.4633334359519,2023,29,"Kabwe","Zambia",0
28.5570539667265,-12.9596289393595,2023,27,"Ndola","Zambia",0
28.5646368532409,-14.8500617318974,2023,30,"Chisamba","Zambia",0
28.6264562720736,-15.7191164703033,2023,71,"Kafue","Zambia",0
28.6645730819897,-13.3692540757568,2023,33,"Masaiti","Zambia",0
28.6840710244891,-11.7551973778665,2023,75,"Chembe","Zambia",0
28.6986168955781,-16.088007401924,2023,61,"Sikongo","Zambia",0
28.7248607802927,-10.4978460732857,2023,29,"Mwense","Zambia",0
28.795834290967,-9.92447170657051,2023,37,"Mwansabombwe","Zambia",0
28.7965034260252,-9.3407588116983,2023,17,"Nchelenge","Zambia",0
28.8914332422388,-15.9627919468734,2023,50,"Chirundu","Zambia",0
29.1511369329561,-10.4256560908037,2023,30,"Chipili","Zambia",0
29.174227495772,-11.9448851776817,2023,65,"Milenge","Zambia",0
29.5003062229248,-15.1561887582194,2023,143,"Rufunsa","Zambia",0
29.5594750768527,-14.4460610942631,2023,27,"Luano","Zambia",0
29.6247976407697,-11.7809456732151,2023,25,"Samfya","Zambia",0
29.6605446869497,-11.0531693558896,2023,26,"Chifunabuli","Zambia",0
29.6830631004321,-13.5507896285894,2023,26,"Mkushi","Zambia",0
29.924172166635,-10.2551879898636,2023,27,"Luwingu","Zambia",0
30.0841659650514,-11.5791602880187,2023,46,"Lunga","Zambia",0
30.1207022971433,-9.369980767799,2023,65,"Mporokoso","Zambia",0
30.3244460931359,-13.4089267797466,2023,73,"Serenje","Zambia",0
30.4400436,-12.9373007,2023,24,"Chitambo","Zambia",0
30.5823868933844,-14.3944520712446,2023,29,"Nyimba","Zambia",0
30.7874548818604,-8.96464225393476,2023,26,"Mpulungu","Zambia",0
30.9360636253271,-11.559518330866,2023,47,"Kanchibiya","Zambia",0
30.9378635143183,-12.5119704071088,2023,75,"Lavushimanda","Zambia",0
31.2711294026606,-14.3388803195967,2023,18,"Petauke","Zambia",0
31.3647155243059,-10.1669124314242,2023,29,"Mungwi","Zambia",0
31.4250251189902,-8.96510327655299,2023,28,"Mbala","Zambia",0
31.663715696556,-9.32291100118062,2023,29,"Senga","Zambia",0
31.7171184494425,-11.0250771629571,2023,13,"Shiwangandu","Zambia",0
31.7175832461182,-14.2685478081725,2023,26,"Sinda","Zambia",0
32.0567962276232,-14.0607971197978,2023,27,"Katete","Zambia",0
32.5924277545705,-9.48804622365248,2023,32,"Nakonde","Zambia",0
32.6134937629284,-13.7894501399478,2023,77,"Chipata","Zambia",0
32.8875259957794,-14.0108676925282,2023,28,"Vubwi","Zambia",0
33.3191247536338,-10.3425837132665,2023,25,"Mafinga","Zambia",0
34.1811,0.692778,2023,166,"Tororo","Uganda",0
